{
  "features": [
    {
      "type": "Feature",
      "properties": {
        "name": "Здійснити системні заходи із заохочення підприємців та населення до впровадження проектів з енергозбереження",
        "type": "Благоустрій"
      },
      "geometry": {
        "coordinates": [
          37.260554,
          48.308833
        ],
        "type": "Point"
      },
      "id": "021013a322b0f1ed9e3950e981864da7"
    },
    {
      "type": "Feature",
      "properties": {
        "name": "Провести заміну зношених водогонів, водопровідних та каналізаційних мереж, котрі знаходяться в аварійному стані",
        "type": "Комунальні послуги"
      },
      "geometry": {
        "coordinates": [
          37.259226,
          48.305637
        ],
        "type": "Point"
      },
      "id": "158b8b1d737e287980871092d41e8c1c"
    },
    {
      "type": "Feature",
      "properties": {
        "name": "Здійснити заходи щодо патріотичного виховання молоді",
        "type": "Освіта"
      },
      "geometry": {
        "coordinates": [
          37.26008,
          48.305237
        ],
        "type": "Point"
      },
      "id": "1abcedb0d5def219a58e47f8a925dd33"
    },
    {
      "type": "Feature",
      "properties": {
        "name": "Провести ремонт палацу спорту \"Олімп\"",
        "type": "Освіта"
      },
      "geometry": {
        "coordinates": [
          37.258498,
          48.30697
        ],
        "type": "Point"
      },
      "id": "380212cf86c53d3ef57f30ae9b27e779"
    },
    {
      "type": "Feature",
      "properties": {
        "name": "Провести реконструкцію ДНЗ №9 \"Ромашка\"",
        "type": "Освіта"
      },
      "geometry": {
        "coordinates": [
          37.26675,
          48.309798
        ],
        "type": "Point"
      },
      "id": "3f706561ceaa3b2bfd791fc95329e96a"
    },
    {
      "type": "Feature",
      "properties": {
        "name": "Вирішити питання з відкриттям міської автостанції для покращення сполучення з містами області",
        "type": "Транспорт"
      },
      "geometry": {
        "coordinates": [
          37.258562,
          48.308569
        ],
        "type": "Point"
      },
      "id": "481ff339b1e03329d644ea0db6cd38e9"
    },
    {
      "type": "Feature",
      "properties": {
        "name": "Проводити якісний ремонт доріг (в приватному секторі району 5/6 вулиць засипані будівельними відходами)",
        "type": "Благоустрій"
      },
      "geometry": {
        "coordinates": [
          37.260712,
          48.30204
        ],
        "type": "Point"
      },
      "id": "54ade38cce1a3886531b759c159df4c7"
    },
    {
      "type": "Feature",
      "properties": {
        "name": "Забезпечити контроль за сплатою податків до місцевого бюджету підприємствами, організаціями незалежно від форми власності та фоп",
        "type": "Бюджет"
      },
      "geometry": {
        "coordinates": [
          37.257013,
          48.30795
        ],
        "type": "Point"
      },
      "id": "803e145861e6419760998af8456c94f8"
    },
    {
      "type": "Feature",
      "properties": {
        "name": "Забезпечити своєчасний вивіз сміття (в т ч обслуговування урн на вулицях і поблизу установ) та ліквідацію стихійних сміттєзвалищ)",
        "type": "Комунальні послуги"
      },
      "geometry": {
        "coordinates": [
          37.259542,
          48.30427
        ],
        "type": "Point"
      },
      "id": "9da3771cc6fbeca2b43d4b58a980a09b"
    },
    {
      "type": "Feature",
      "properties": {
        "name": "Продовжити проведення заходів із двостороннього спілкування з громадськістю щодо прийняття рішень: громадські зібрання, громадські слухання, публічні консультації",
        "type": "Стратегія розвитку громади"
      },
      "geometry": {
        "coordinates": [
          37.257962,
          48.307592
        ],
        "type": "Point"
      },
      "id": "a27d6c707789e47e004bb1018f94c9ea"
    },
    {
      "type": "Feature",
      "properties": {
        "name": "Покращити якість водопостачання (заміна водопроводу та поліпшення якості питної води, зниження тарифів)",
        "type": "Комунальні послуги"
      },
      "geometry": {
        "coordinates": [
          37.264907,
          48.308264
        ],
        "type": "Point"
      },
      "id": "acf71ce87b425742eafb4b8047603afb"
    },
    {
      "type": "Feature",
      "properties": {
        "name": "Здійснити заходи щодо розвитку комунального транспорту",
        "type": "Транспорт"
      },
      "geometry": {
        "coordinates": [
          37.259574,
          48.30877
        ],
        "type": "Point"
      },
      "id": "b4af6b7d63e4324205f4145e7dad704c"
    },
    {
      "type": "Feature",
      "properties": {
        "name": "Покращити якість медичних послуг",
        "type": "Медицина"
      },
      "geometry": {
        "coordinates": [
          37.258815,
          48.30162
        ],
        "type": "Point"
      },
      "id": "b5b1e557dc4e187082f8dfe31238b527"
    },
    {
      "type": "Feature",
      "properties": {
        "name": "Продовжувати реконструкцію мереж зовнішнього освітлення вулиць з використанням сучасних енергозберігаючих технологій",
        "type": "Благоустрій"
      },
      "geometry": {
        "coordinates": [
          37.259131,
          48.30856
        ],
        "type": "Point"
      },
      "id": "bb18f647b8ea08bd906521dd311e0a58"
    },
    {
      "type": "Feature",
      "properties": {
        "name": "Залучення інвестицій для розвитку громади",
        "type": "Стратегія розвитку громади"
      },
      "geometry": {
        "coordinates": [
          37.25774,
          48.308328
        ],
        "type": "Point"
      },
      "id": "ca29947d6f1762ab51e60fc6a6ecdf58"
    },
    {
      "type": "Feature",
      "properties": {
        "name": "Провести капітальний ремонт очисних споруд Мирноградського міськводоканалу",
        "type": "Комунальні послуги"
      },
      "geometry": {
        "coordinates": [
          37.262356,
          48.307803
        ],
        "type": "Point"
      },
      "id": "d0eb1229a116cd1b2fe8777c8c4adfe0"
    },
    {
      "type": "Feature",
      "properties": {
        "name": "Розробити програму, щодо сучасного стану та удосконалення системи поводження з відходами",
        "type": "Благоустрій"
      },
      "geometry": {
        "coordinates": [
          37.260175,
          48.303218
        ],
        "type": "Point"
      },
      "id": "d5a812a5c67bdeb64eae5f7ed78846aa"
    },
    {
      "type": "Feature",
      "properties": {
        "name": "Створення привабливого клімату для розвитку малого та середнього бізнесу",
        "type": "Стратегія розвитку громади"
      },
      "geometry": {
        "coordinates": [
          37.258942,
          48.306246
        ],
        "type": "Point"
      },
      "id": "edb23edcb23789307175ecb932977b58"
    },
    {
      "type": "Feature",
      "properties": {
        "name": "Здійснити залучення інвесторів (внутрішніх або зовнішніх) у проекти з будівництва сонячних, гідроелектростанцій з можливістю продажу надлишку виробленої електроенергії в загальну мережу за \"зеленим тарифом\" (У червні в Донецькій області з’явилося 19 нових",
        "type": "Благоустрій"
      },
      "geometry": {
        "coordinates": [
          37.255287,
          48.307744
        ],
        "type": "Point"
      },
      "id": "f309c935fd3c4e372713e5bb0a150eea"
    },
    {
      "type": "Feature",
      "properties": {
        "name": "Провести актуалізацію привабливих для інвесторів об'єктів нерухомого комунального майна та земельних ділянок",
        "type": "Майно громади"
      },
      "geometry": {
        "coordinates": [
          37.262356,
          48.309254
        ],
        "type": "Point"
      },
      "id": "f55a09c1f32ab13b7b53304d2df2e578"
    }
  ],
  "type": "FeatureCollection"
}